[{"Name":"test","Id":0,"Settings":{"TimeLimit":5.0,"Visible":false,"ShowAll":false},"Stations":[{"Id":1,"Name":null,"Location":{"Latitude":58.58216819128972,"Longitude":16.198852658271793},"PointOnMapGuid":"2a957dd1-2d81-4d97-8a05-370fbb789401","Assignment":null},{"Id":2,"Name":null,"Location":{"Latitude":58.58221852534398,"Longitude":16.19864344596863},"PointOnMapGuid":"ec037d5a-e84b-47ba-82a6-09e8eb45fba3","Assignment":null}]},{"Name":"Min Karta","Id":1,"Settings":{"TimeLimit":15.0,"Visible":false,"ShowAll":true},"Stations":[{"Id":1,"Name":"Start","Location":{"Latitude":57.162393558135086,"Longitude":16.454193592071537},"PointOnMapGuid":"36d7aa0a-c1bc-4ce7-8de5-019a785bec2c","Assignment":"Starta här"},{"Id":2,"Name":"Mitten","Location":{"Latitude":57.161549965113416,"Longitude":16.45834565162659},"PointOnMapGuid":"a7f0f6c3-5063-467d-ade4-80bb062bc0a5","Assignment":"Gör ett uppdrag här"},{"Id":3,"Name":"Mål","Location":{"Latitude":57.15964162851418,"Longitude":16.462047100067142},"PointOnMapGuid":"ff8959ec-04a6-46cb-b4ad-60e6da5ee55a","Assignment":"Nu är du framme vid skolan"}]},{"Name":"Motionsslingan Påskallavik","Id":2,"Settings":{"TimeLimit":30.0,"Visible":true,"ShowAll":true},"Stations":[{"Id":1,"Name":"Utegymmet","Location":{"Latitude":57.16152101171392,"Longitude":16.458200812339786},"PointOnMapGuid":"893cb5ed-c173-42bc-9933-157bc80c8bc3","Assignment":"Gå balansgång"},{"Id":2,"Name":"Backen","Location":{"Latitude":57.15741899041435,"Longitude":16.454687118530277},"PointOnMapGuid":"174e87dd-04b4-4065-a43a-e8529a851303","Assignment":"Spring uppför backen så fort du kan"},{"Id":3,"Name":"Kojan","Location":{"Latitude":57.156930361228476,"Longitude":16.458029150962833},"PointOnMapGuid":"c05160c6-e883-4ab3-a087-4bc1757c8897","Assignment":"Kontrollera att kojan inte har blåst sönder"},{"Id":4,"Name":"Genvägen","Location":{"Latitude":57.15817553694391,"Longitude":16.458501219749454},"PointOnMapGuid":"3220f684-9514-42bb-8b4b-aa8791ba9a9c","Assignment":"Ta genvägen till vänster"},{"Id":5,"Name":"Utgången","Location":{"Latitude":57.15938562464979,"Longitude":16.45907521247864},"PointOnMapGuid":"363730d4-5a98-46d5-9f02-0e9f734b5410","Assignment":"Följ utgången från slingan och återvänd till skolan"}]},{"Name":"Huset","Id":5,"Settings":{"TimeLimit":10.0,"Visible":true,"ShowAll":true},"Stations":[{"Id":1,"Name":"Första","Location":{"Latitude":57.16238483140923,"Longitude":16.45433306694031},"PointOnMapGuid":"1d6d545c-8058-43b5-afb8-0e4e00f74dae","Assignment":null},{"Id":2,"Name":"Andra","Location":{"Latitude":57.16237610468133,"Longitude":16.454054117202762},"PointOnMapGuid":"4ecfc46d-2cf9-4047-8ad5-cb6d4cb8a3ff","Assignment":null},{"Id":3,"Name":"Tredje","Location":{"Latitude":57.16247500747702,"Longitude":16.454059481620792},"PointOnMapGuid":"72ef6178-625f-4450-90bc-17b82a4b489a","Assignment":null},{"Id":4,"Name":"Fjärde","Location":{"Latitude":57.16247500747702,"Longitude":16.454311609268192},"PointOnMapGuid":"f8b1475e-8c81-46f5-8ed5-650cefd60a06","Assignment":null}]},{"Name":"Gatan","Id":5,"Settings":{"TimeLimit":20.0,"Visible":true,"ShowAll":true},"Stations":[{"Id":1,"Name":"Hemma","Location":{"Latitude":57.162184243402876,"Longitude":16.454477906227115},"PointOnMapGuid":"8844b375-828d-4a25-b8e4-f74b837a388e","Assignment":"Gå hemifrån"},{"Id":2,"Name":"Grannen","Location":{"Latitude":57.162184243402876,"Longitude":16.45383417606354},"PointOnMapGuid":"b001706e-c896-4370-8ec4-9e571780fc59","Assignment":"Hälsa på grannen"},{"Id":3,"Name":"Korsningen","Location":{"Latitude":57.1622307861694,"Longitude":16.452949047088627},"PointOnMapGuid":"f66244e1-c5cb-4350-a21e-6d7a9113b351","Assignment":"Se upp för bilar"},{"Id":4,"Name":"Fotbollsplanen","Location":{"Latitude":57.16247222583064,"Longitude":16.45261645317078},"PointOnMapGuid":"f959d153-a36b-4771-8cf6-0d78c8d3e8ca","Assignment":"Spela fotboll med barnen"}]},{"Name":"industri","Id":6,"Settings":{"TimeLimit":10.0,"Visible":false,"ShowAll":false},"Stations":[{"Id":1,"Name":"ett","Location":{"Latitude":58.5888969472072,"Longitude":16.180881857872013},"PointOnMapGuid":"16e6db9c-dfd0-4df1-826d-4ba93b761887","Assignment":"första uppdrag"},{"Id":2,"Name":"två","Location":{"Latitude":58.588776727570014,"Longitude":16.181123256683353},"PointOnMapGuid":"e3952385-df80-477b-ba59-f538c4ba2371","Assignment":"andra uppdrag"}]}]