[
  {
    "Name": "test",
    "Id": 0,
    "Settings": {
      "TimeLimit": 5.0,
      "Visible": false,
      "ShowAll": false
    },
    "Stations": [
      {
        "Id": 1,
        "Name": null,
        "Location": {
          "Latitude": 58.58216819128972,
          "Longitude": 16.198852658271793
        },
        "PointOnMapGuid": "2a957dd1-2d81-4d97-8a05-370fbb789401",
        "Assignment": null
      },
      {
        "Id": 2,
        "Name": null,
        "Location": {
          "Latitude": 58.58221852534398,
          "Longitude": 16.19864344596863
        },
        "PointOnMapGuid": "ec037d5a-e84b-47ba-82a6-09e8eb45fba3",
        "Assignment": null
      }
    ]
  },
  {
    "Name": "Min Karta",
    "Id": 1,
    "Settings": {
      "TimeLimit": 15.0,
      "Visible": false,
      "ShowAll": true
    },
    "Stations": [
      {
        "Id": 1,
        "Name": "Start",
        "Location": {
          "Latitude": 57.162393558135086,
          "Longitude": 16.454193592071537
        },
        "PointOnMapGuid": "36d7aa0a-c1bc-4ce7-8de5-019a785bec2c",
        "Assignment": "Starta här"
      },
      {
        "Id": 2,
        "Name": "Mitten",
        "Location": {
          "Latitude": 57.161549965113416,
          "Longitude": 16.45834565162659
        },
        "PointOnMapGuid": "a7f0f6c3-5063-467d-ade4-80bb062bc0a5",
        "Assignment": "Gör ett uppdrag här"
      },
      {
        "Id": 3,
        "Name": "Mål",
        "Location": {
          "Latitude": 57.15964162851418,
          "Longitude": 16.462047100067142
        },
        "PointOnMapGuid": "ff8959ec-04a6-46cb-b4ad-60e6da5ee55a",
        "Assignment": "Nu är du framme vid skolan"
      }
    ]
  },
  {
    "Name": "Motionsslingan Påskallavik",
    "Id": 2,
    "Settings": {
      "TimeLimit": 30.0,
      "Visible": true,
      "ShowAll": true
    },
    "Stations": [
      {
        "Id": 1,
        "Name": "Utegymmet",
        "Location": {
          "Latitude": 57.16152101171392,
          "Longitude": 16.458200812339786
        },
        "PointOnMapGuid": "893cb5ed-c173-42bc-9933-157bc80c8bc3",
        "Assignment": "Gå balansgång"
      },
      {
        "Id": 2,
        "Name": "Backen",
        "Location": {
          "Latitude": 57.15741899041435,
          "Longitude": 16.454687118530277
        },
        "PointOnMapGuid": "174e87dd-04b4-4065-a43a-e8529a851303",
        "Assignment": "Spring uppför backen så fort du kan"
      },
      {
        "Id": 3,
        "Name": "Kojan",
        "Location": {
          "Latitude": 57.156930361228476,
          "Longitude": 16.458029150962833
        },
        "PointOnMapGuid": "c05160c6-e883-4ab3-a087-4bc1757c8897",
        "Assignment": "Kontrollera att kojan inte har blåst sönder"
      },
      {
        "Id": 4,
        "Name": "Genvägen",
        "Location": {
          "Latitude": 57.15817553694391,
          "Longitude": 16.458501219749454
        },
        "PointOnMapGuid": "3220f684-9514-42bb-8b4b-aa8791ba9a9c",
        "Assignment": "Ta genvägen till vänster"
      },
      {
        "Id": 5,
        "Name": "Utgången",
        "Location": {
          "Latitude": 57.15894938670929,
          "Longitude": 16.459944248199466
        },
        "PointOnMapGuid": "363730d4-5a98-46d5-9f02-0e9f734b5410",
        "Assignment": "Följ utgången från slingan och återvänd till skolan"
      }
    ]
  }
]