[
  {
    "Name": "Map 1",
    "Id": 1,
    "Stations": null
  },
  {
    "Name": "Map 2",
    "Id": 2,
    "Stations": null
  },
  {
    "Name": "Map 3",
    "Id": 3,
    "Stations": null
  },
  {
    "Name": "Min Karta",
    "Id": 4,
    "Stations": [
      {
        "Id": 1,
        "Name": "Start",
        "Location": {
          "Latitude": 57.162387740318074,
          "Longitude": 16.454225778579715
        },
        "Assignment": "Detta är starten"
      },
      {
        "Id": 2,
        "Name": "Mitten",
        "Location": {
          "Latitude": 57.16209116679333,
          "Longitude": 16.45314753055573
        },
        "Assignment": "Detta är mitten"
      },
      {
        "Id": 3,
        "Name": "Mål",
        "Location": {
          "Latitude": 57.16205916852684,
          "Longitude": 16.45413458347321
        },
        "Assignment": "Detta är målet"
      }
    ]
  },
  {
    "Name": "Motionsslingan Påskallavik",
    "Id": 5,
    "Stations": [
      {
        "Id": 1,
        "Name": "Utegymmet",
        "Location": {
          "Latitude": 57.16152669330902,
          "Longitude": 16.458281278610233
        },
        "Assignment": null
      },
      {
        "Id": 2,
        "Name": "Vildsvinsstigen",
        "Location": {
          "Latitude": 57.15883288298971,
          "Longitude": 16.454815864562992
        },
        "Assignment": null
      },
      {
        "Id": 3,
        "Name": "Kojjan",
        "Location": {
          "Latitude": 57.15612723883773,
          "Longitude": 16.45739078521729
        },
        "Assignment": null
      },
      {
        "Id": 4,
        "Name": "Genvägen",
        "Location": {
          "Latitude": 57.158152126645234,
          "Longitude": 16.458517313003544
        },
        "Assignment": null
      },
      {
        "Id": 5,
        "Name": "Utgången till skolan",
        "Location": {
          "Latitude": 57.15934462386624,
          "Longitude": 16.45910739898682
        },
        "Assignment": null
      }
    ]
  }
]